[{"name":"PeekYou","geopoint":{"type":"Point","coordinates":[-73.985506,40.757929]},"City":"New York","latitude":40.757929,"longitude":-73.985506},{"name":"BrandYourself","geopoint":{"type":"Point","coordinates":[-71.24762,42.275263]},"City":"New York","latitude":42.275263,"longitude":-71.24762},{"name":"ChallengePost","geopoint":{"type":"Point","coordinates":[-74.00717,40.7408042]},"City":"New York","latitude":40.7408042,"longitude":-74.00717},{"name":"Yipit","geopoint":{"type":"Point","coordinates":[-73.987764,40.744618]},"City":"New York","latitude":40.744618,"longitude":-73.987764},{"name":"GameChanger Media","geopoint":{"type":"Point","coordinates":[-74.0136605,40.7078343]},"City":"New York","latitude":40.7078343,"longitude":-74.0136605},{"name":"Chartbeat","geopoint":{"type":"Point","coordinates":[-73.990967,40.73343]},"City":"New York","latitude":40.73343,"longitude":-73.990967},{"name":"Starbucks","geopoint":{"type":"Point","coordinates":[-73.9858802,40.7567274]},"City":"New York","latitude":40.7567274,"longitude":-73.9858802},{"name":"Starbucks","geopoint":{"type":"Point","coordinates":[-73.9891482,40.7571349]},"City":"New York","latitude":40.7571349,"longitude":-73.9891482},{"name":"Starbucks","geopoint":{"type":"Point","coordinates":[-73.9500657,40.772464]},"City":"New York","latitude":40.772464,"longitude":-73.9500657},{"name":"Starbucks","geopoint":{"type":"Point","coordinates":[-73.976134,40.760348]},"City":"New York","latitude":40.760348,"longitude":-73.976134},{"name":"Starbucks Reserve","geopoint":{"type":"Point","coordinates":[-74.0155323,40.7141516]},"City":"New York","latitude":40.7141516,"longitude":-74.0155323},{"name":"Starbucks","geopoint":{"type":"Point","coordinates":[-73.974057,40.7624009]},"City":"New York","latitude":40.7624009,"longitude":-73.974057},{"name":"Starbucks","geopoint":{"type":"Point","coordinates":[-73.985313,40.7637143]},"City":"New York","latitude":40.7637143,"longitude":-73.985313},{"name":"Starbucks","geopoint":{"type":"Point","coordinates":[-73.980208,40.755599]},"City":"New York","latitude":40.755599,"longitude":-73.980208},{"name":"Starbucks","geopoint":{"type":"Point","coordinates":[-73.981069,40.764412]},"City":"New York","latitude":40.764412,"longitude":-73.981069},{"name":"Starbucks","geopoint":{"type":"Point","coordinates":[-73.9837823,40.7607368]},"City":"New York","latitude":40.7607368,"longitude":-73.9837823},{"name":"Starbucks","geopoint":{"type":"Point","coordinates":[-74.00673,40.711619]},"City":"New York","latitude":40.711619,"longitude":-74.00673},{"name":"Starbucks","geopoint":{"type":"Point","coordinates":[-74.01133,40.705162]},"City":"New York","latitude":40.705162,"longitude":-74.01133},{"name":"Starbucks","geopoint":{"type":"Point","coordinates":[-73.977102,40.7647848]},"City":"New York","latitude":40.7647848,"longitude":-73.977102},{"name":"Starbucks Reserve","geopoint":{"type":"Point","coordinates":[-73.985222,40.759636]},"City":"New York","latitude":40.759636,"longitude":-73.985222},{"name":"Starbucks","geopoint":{"type":"Point","coordinates":[-73.989977,40.719333]},"City":"New York","latitude":40.719333,"longitude":-73.989977},{"name":"Starbucks","geopoint":{"type":"Point","coordinates":[-73.980964,40.733037]},"City":"New York","latitude":40.733037,"longitude":-73.980964},{"name":"Starbucks","geopoint":{"type":"Point","coordinates":[-74.003125,40.715754]},"City":"New York","latitude":40.715754,"longitude":-74.003125},{"name":"Starbucks","geopoint":{"type":"Point","coordinates":[-74.015373,40.710914]},"City":"New York","latitude":40.710914,"longitude":-74.015373},{"name":"Starbucks","geopoint":{"type":"Point","coordinates":[-73.978954,40.758856]},"City":"New York","latitude":40.758856,"longitude":-73.978954},{"name":"Starbucks","geopoint":{"type":"Point","coordinates":[-73.999961,40.718252]},"City":"New York","latitude":40.718252,"longitude":-73.999961}]