[{"name":"PeekYou","founded_year":2012,"total_money_raised":"$1.83M","offices":[{"city":"New York","latitude":40.757929,"longitude":-73.985506}],"geopoint":{"type":"Point","coordinates":[-73.985506,40.757929]},"City":"New York","latitude":40.757929,"longitude":-73.985506},{"name":"GENWI","founded_year":2010,"total_money_raised":"$7.1M","offices":[{"city":"Los Altos","latitude":33.8171,"longitude":-111.9035}],"geopoint":{"type":"Point","coordinates":[-111.9035,33.8171]},"City":"Los Altos","latitude":33.8171,"longitude":-111.9035},{"name":"Fixya","founded_year":2013,"total_money_raised":"$8M","offices":[{"city":"San Mateo","latitude":37.566879,"longitude":-122.323895}],"geopoint":{"type":"Point","coordinates":[-122.323895,37.566879]},"City":"San Mateo","latitude":37.566879,"longitude":-122.323895},{"name":"Needium","founded_year":2010,"total_money_raised":"$1M","offices":[{"city":"Montreal","latitude":45.5049305,"longitude":-73.5681635}],"geopoint":{"type":"Point","coordinates":[-73.5681635,45.5049305]},"City":"Montreal","latitude":45.5049305,"longitude":-73.5681635},{"name":"Social Gaming Network","founded_year":2011,"total_money_raised":"$17.1M","offices":[{"city":"Los Angeles","latitude":37.446823,"longitude":-122.161523},{"city":"Beverly Hills","latitude":34.0698494,"longitude":-118.4054182}],"geopoint":{"type":"Point","coordinates":[-122.161523,37.446823]},"City":"Los Angeles","latitude":37.446823,"longitude":-122.161523},{"name":"Skydeck","founded_year":2012,"total_money_raised":"$4M","offices":[{"city":"Palo Alto","latitude":37.5645375,"longitude":-122.3254705}],"geopoint":{"type":"Point","coordinates":[-122.3254705,37.5645375]},"City":"Palo Alto","latitude":37.5645375,"longitude":-122.3254705},{"name":"Moblica","founded_year":2011,"total_money_raised":"$6M","offices":[{"city":"Tel Aviv","latitude":32.0554,"longitude":34.7595}],"geopoint":{"type":"Point","coordinates":[34.7595,32.0554]},"City":"Tel Aviv","latitude":32.0554,"longitude":34.7595},{"name":"Pixsta","founded_year":2010,"total_money_raised":"\u00a33M","offices":[{"city":"London","latitude":51.51819,"longitude":-0.208979}],"geopoint":{"type":"Point","coordinates":[-0.208979,51.51819]},"City":"London","latitude":51.51819,"longitude":-0.208979},{"name":"BrandYourself","founded_year":2009,"total_money_raised":"$1.5M","offices":[{"city":"New York","latitude":42.275263,"longitude":-71.24762}],"geopoint":{"type":"Point","coordinates":[-71.24762,42.275263]},"City":"New York","latitude":42.275263,"longitude":-71.24762},{"name":"Titan Gaming","founded_year":2010,"total_money_raised":"$1M","offices":[{"city":"Santa Monica","latitude":53.544711,"longitude":-113.515769}],"geopoint":{"type":"Point","coordinates":[-113.515769,53.544711]},"City":"Santa Monica","latitude":53.544711,"longitude":-113.515769},{"name":"Prezi","founded_year":2009,"total_money_raised":"$14.3M","offices":[{"city":"Budapest","latitude":47.490346,"longitude":19.059078},{"city":"San Francisco","latitude":null,"longitude":null}],"geopoint":{"type":"Point","coordinates":[19.059078,47.490346]},"City":"Budapest","latitude":47.490346,"longitude":19.059078},{"name":"Integrate","founded_year":2010,"total_money_raised":"$34.8M","offices":[{"city":"Scottsdale","latitude":40.7481039,"longitude":-74.0353787},{"city":"Denver","latitude":null,"longitude":null},{"city":"San Francisco","latitude":null,"longitude":null},{"city":"Hopkinton","latitude":null,"longitude":null}],"geopoint":{"type":"Point","coordinates":[-74.0353787,40.7481039]},"City":"Scottsdale","latitude":40.7481039,"longitude":-74.0353787},{"name":"Integrate","founded_year":2010,"total_money_raised":"$34.8M","offices":[{"city":"Scottsdale","latitude":40.7481039,"longitude":-74.0353787},{"city":"Denver","latitude":null,"longitude":null},{"city":"San Francisco","latitude":null,"longitude":null},{"city":"Hopkinton","latitude":null,"longitude":null}],"geopoint":{"type":"Point","coordinates":[-74.0353787,40.7481039]},"City":"Scottsdale","latitude":40.7481039,"longitude":-74.0353787},{"name":"Formspring","founded_year":2009,"total_money_raised":"$14.3M","offices":[{"city":"San Francisco","latitude":39.9052263,"longitude":-86.0547016}],"geopoint":{"type":"Point","coordinates":[-86.0547016,39.9052263]},"City":"San Francisco","latitude":39.9052263,"longitude":-86.0547016},{"name":"Yipit","founded_year":2010,"total_money_raised":"$7.55M","offices":[{"city":"New York","latitude":40.744618,"longitude":-73.987764}],"geopoint":{"type":"Point","coordinates":[-73.987764,40.744618]},"City":"New York","latitude":40.744618,"longitude":-73.987764},{"name":"Jolicloud","founded_year":2009,"total_money_raised":"$4.2M","offices":[{"city":"Paris","latitude":48.8566667,"longitude":2.3509871}],"geopoint":{"type":"Point","coordinates":[2.3509871,48.8566667]},"City":"Paris","latitude":48.8566667,"longitude":2.3509871},{"name":"ScaleMP","founded_year":2009,"total_money_raised":"$8M","offices":[{"city":"Cupertino","latitude":37.3229727,"longitude":-122.0385792}],"geopoint":{"type":"Point","coordinates":[-122.0385792,37.3229727]},"City":"Cupertino","latitude":37.3229727,"longitude":-122.0385792},{"name":"VisualOn","founded_year":2011,"total_money_raised":"$3.1M","offices":[{"city":"Santa Clara","latitude":37.270518,"longitude":-121.955879}],"geopoint":{"type":"Point","coordinates":[-121.955879,37.270518]},"City":"Santa Clara","latitude":37.270518,"longitude":-121.955879},{"name":"Heyzap","founded_year":2009,"total_money_raised":"$7.97M","offices":[{"city":"San Francisco","latitude":37.7905538,"longitude":-122.4041485}],"geopoint":{"type":"Point","coordinates":[-122.4041485,37.7905538]},"City":"San Francisco","latitude":37.7905538,"longitude":-122.4041485},{"name":"Talari Networks","founded_year":2009,"total_money_raised":"$45.1M","offices":[{"city":"San Jose","latitude":37.317735,"longitude":-121.949417},{"city":"Morrisville","latitude":35.8535092,"longitude":-78.8267112}],"geopoint":{"type":"Point","coordinates":[-121.949417,37.317735]},"City":"San Jose","latitude":37.317735,"longitude":-121.949417},{"name":"Tinychat","founded_year":2009,"total_money_raised":"$1.5M","offices":[{"city":"Glen Cove","latitude":42.3756409,"longitude":-72.5196907}],"geopoint":{"type":"Point","coordinates":[-72.5196907,42.3756409]},"City":"Glen Cove","latitude":42.3756409,"longitude":-72.5196907},{"name":"BASH Gaming","founded_year":2010,"total_money_raised":"$1M","offices":[{"city":"Fremont","latitude":37.5561712,"longitude":-122.0780632},{"city":"Bangalore","latitude":12.971606,"longitude":77.594376}],"geopoint":{"type":"Point","coordinates":[-122.0780632,37.5561712]},"City":"Fremont","latitude":37.5561712,"longitude":-122.0780632},{"name":"AppNeta","founded_year":2010,"total_money_raised":"$55.8M","offices":[{"city":"SOUTH BOSTON","latitude":42.318138,"longitude":-71.24756}],"geopoint":{"type":"Point","coordinates":[-71.24756,42.318138]},"City":"SOUTH BOSTON","latitude":42.318138,"longitude":-71.24756},{"name":"AppZero","founded_year":2009,"total_money_raised":"$15.1M","offices":[{"city":"Andover","latitude":42.6751888,"longitude":-71.1469003}],"geopoint":{"type":"Point","coordinates":[-71.1469003,42.6751888]},"City":"Andover","latitude":42.6751888,"longitude":-71.1469003},{"name":"Gridstore","founded_year":2009,"total_money_raised":"\u20ac25M","offices":[{"city":"Mountain View","latitude":37.4189073,"longitude":-122.0884286}],"geopoint":{"type":"Point","coordinates":[-122.0884286,37.4189073]},"City":"Mountain View","latitude":37.4189073,"longitude":-122.0884286},{"name":"GameChanger Media","founded_year":2009,"total_money_raised":"$3.64M","offices":[{"city":"New York","latitude":40.7078343,"longitude":-74.0136605}],"geopoint":{"type":"Point","coordinates":[-74.0136605,40.7078343]},"City":"New York","latitude":40.7078343,"longitude":-74.0136605},{"name":"Z2Live","founded_year":2009,"total_money_raised":"$6.5M","offices":[{"city":"Seattle","latitude":47.6103008,"longitude":-122.3399782}],"geopoint":{"type":"Point","coordinates":[-122.3399782,47.6103008]},"City":"Seattle","latitude":47.6103008,"longitude":-122.3399782},{"name":"Tongal","founded_year":2009,"total_money_raised":"$16M","offices":[{"city":"Santa Monica","latitude":34.007112,"longitude":-118.489748}],"geopoint":{"type":"Point","coordinates":[-118.489748,34.007112]},"City":"Santa Monica","latitude":34.007112,"longitude":-118.489748},{"name":"oneforty","founded_year":2009,"total_money_raised":"$2.35M","offices":[{"city":"Cambridge","latitude":42.364014,"longitude":-71.101375}],"geopoint":{"type":"Point","coordinates":[-71.101375,42.364014]},"City":"Cambridge","latitude":42.364014,"longitude":-71.101375},{"name":"Chartbeat","founded_year":2009,"total_money_raised":"$14.5M","offices":[{"city":"New York","latitude":40.73343,"longitude":-73.990967}],"geopoint":{"type":"Point","coordinates":[-73.990967,40.73343]},"City":"New York","latitude":40.73343,"longitude":-73.990967},{"name":"Factery","founded_year":2009,"total_money_raised":"$1.2M","offices":[{"city":"Menlo Park","latitude":37.4484914,"longitude":-122.1802812}],"geopoint":{"type":"Point","coordinates":[-122.1802812,37.4484914]},"City":"Menlo Park","latitude":37.4484914,"longitude":-122.1802812},{"name":"Ikanos","founded_year":2009,"total_money_raised":"$42M","offices":[{"city":"Fremont","latitude":37.4734314,"longitude":-121.9417078}],"geopoint":{"type":"Point","coordinates":[-121.9417078,37.4734314]},"City":"Fremont","latitude":37.4734314,"longitude":-121.9417078},{"name":"Infochimps","founded_year":2009,"total_money_raised":"$5.35M","offices":[{"city":"Austin","latitude":30.2734822,"longitude":-97.7588828},{"city":"Redwood City","latitude":null,"longitude":null}],"geopoint":{"type":"Point","coordinates":[-97.7588828,30.2734822]},"City":"Austin","latitude":30.2734822,"longitude":-97.7588828},{"name":"Shareaholic","founded_year":2009,"total_money_raised":"$5.46M","offices":[{"city":"Boston","latitude":42.3647559,"longitude":-71.1032591}],"geopoint":{"type":"Point","coordinates":[-71.1032591,42.3647559]},"City":"Boston","latitude":42.3647559,"longitude":-71.1032591},{"name":"The Resumator","founded_year":2009,"total_money_raised":"$2.98M","offices":[{"city":"Pittsburgh","latitude":40.438423,"longitude":-80.001933}],"geopoint":{"type":"Point","coordinates":[-80.001933,40.438423]},"City":"Pittsburgh","latitude":40.438423,"longitude":-80.001933},{"name":"Fliptop","founded_year":2010,"total_money_raised":"$6.79M","offices":[{"city":"San Francisco","latitude":37.775206,"longitude":-122.419209}],"geopoint":{"type":"Point","coordinates":[-122.419209,37.775206]},"City":"San Francisco","latitude":37.775206,"longitude":-122.419209},{"name":"Ykone","founded_year":2009,"total_money_raised":"\u20ac1.5M","offices":[{"city":"Paris","latitude":48.8566667,"longitude":2.3509871}],"geopoint":{"type":"Point","coordinates":[2.3509871,48.8566667]},"City":"Paris","latitude":48.8566667,"longitude":2.3509871},{"name":"Layar","founded_year":2009,"total_money_raised":"$13.4M","offices":[{"city":"Amsterdam","latitude":52.3657578,"longitude":4.8928722}],"geopoint":{"type":"Point","coordinates":[4.8928722,52.3657578]},"City":"Amsterdam","latitude":52.3657578,"longitude":4.8928722},{"name":"ChallengePost","founded_year":2009,"total_money_raised":"$4.6M","offices":[{"city":"New York","latitude":40.7408042,"longitude":-74.00717}],"geopoint":{"type":"Point","coordinates":[-74.00717,40.7408042]},"City":"New York","latitude":40.7408042,"longitude":-74.00717},{"name":"Teambox","founded_year":2009,"total_money_raised":"$6.75M","offices":[{"city":"Barcelona","latitude":41.4063346,"longitude":2.1920231},{"city":"Redwood City","latitude":null,"longitude":null}],"geopoint":{"type":"Point","coordinates":[2.1920231,41.4063346]},"City":"Barcelona","latitude":41.4063346,"longitude":2.1920231},{"name":"Tiny Speck","founded_year":2009,"total_money_raised":"$17.2M","offices":[{"city":"Vancouver","latitude":49.2824551,"longitude":-123.109217}],"geopoint":{"type":"Point","coordinates":[-123.109217,49.2824551]},"City":"Vancouver","latitude":49.2824551,"longitude":-123.109217},{"name":"Getyoo","founded_year":2009,"total_money_raised":"\u20ac1.13M","offices":[{"city":"Brussels","latitude":50.83997,"longitude":4.3464721}],"geopoint":{"type":"Point","coordinates":[4.3464721,50.83997]},"City":"Brussels","latitude":50.83997,"longitude":4.3464721}]